{
"type": "FeatureCollection",
"name": "pois",
"features": [
{ "type": "Feature", "properties": { "id": "08f283446a4d43480367496e610dd55a", "name": "A and L Spa", "addresses": [ { "freeform": "3888 Monterey Rd", "locality": "San Jose", "postcode": "95111-3402", "region": "CA", "country": "US" } ], "confidence": 0.93837369560937189 }, "geometry": { "type": "Point", "coordinates": [ -121.8383817, 37.2814927 ] } },
{ "type": "Feature", "properties": { "id": "08f283446a4365250374cd3b42535234", "name": "Santa Cruz Beach", "addresses": [ { "freeform": null, "locality": "San Jose", "postcode": null, "region": "CA", "country": "US" } ], "confidence": 0.47268106734434556 }, "geometry": { "type": "Point", "coordinates": [ -121.8376899, 37.2771957 ] } },
{ "type": "Feature", "properties": { "id": "08f283446a433882036a53a703fdbb8f", "name": "Triibu marketing", "addresses": [ { "freeform": "4200 The Woods Dr", "locality": "San Jose", "postcode": "95136-2207", "region": "CA", "country": "US" } ], "confidence": 0.83841059602649004 }, "geometry": { "type": "Point", "coordinates": [ -121.838357, 37.2777189 ] } },
{ "type": "Feature", "properties": { "id": "08f283446a513348035a6f12102c6c2a", "name": "The Woods Apartments", "addresses": [ { "freeform": "4300 The Woods Dr", "locality": "San Jose", "postcode": "95136", "region": "CA", "country": "US" } ], "confidence": 0.89393695014662755 }, "geometry": { "type": "Point", "coordinates": [ -121.8365162, 37.2770764 ] } },
{ "type": "Feature", "properties": { "id": "08f283446a4a24f103d9c713fa8eac46", "name": "Burger King", "addresses": [ { "freeform": "4040 Monterey Rd", "locality": "San Jose", "postcode": "95111-3600", "region": "CA", "country": "US" } ], "confidence": 0.99497955735766175 }, "geometry": { "type": "Point", "coordinates": [ -121.8358063, 37.2790516 ] } },
{ "type": "Feature", "properties": { "id": "08f283446a592a0d03f7e27c8a0da279", "name": "KFC", "addresses": [ { "freeform": "4162 Monterey Hwy", "locality": "San Jose", "postcode": "95111-3627", "region": "CA", "country": "US" } ], "confidence": 0.99497955735766175 }, "geometry": { "type": "Point", "coordinates": [ -121.834429, 37.2774181 ] } },
{ "type": "Feature", "properties": { "id": "08f283446a59323303d4c3a333278ced", "name": "7-Eleven", "addresses": [ { "freeform": "4156 Monterey Rd", "locality": "San Jose", "postcode": "95111-3627", "region": "CA", "country": "US" } ], "confidence": 0.99497955735766175 }, "geometry": { "type": "Point", "coordinates": [ -121.8345737, 37.27776 ] } },
{ "type": "Feature", "properties": { "id": "08f283446a59320003608b4e902b4876", "name": "California Check Cashing Stores", "addresses": [ { "freeform": "4156 Monterey Rd", "locality": "San Jose", "postcode": "95111-3627", "region": "CA", "country": "US" } ], "confidence": 0.98582594999015549 }, "geometry": { "type": "Point", "coordinates": [ -121.8344955, 37.2778475 ] } },
{ "type": "Feature", "properties": { "id": "08f283446a59041603b2567371d28e8f", "name": "San Jose Cal", "addresses": [ { "freeform": null, "locality": "San Jose", "postcode": null, "region": "CA", "country": "US" } ], "confidence": 0.47268106734434556 }, "geometry": { "type": "Point", "coordinates": [ -121.8341685, 37.2773392 ] } },
{ "type": "Feature", "properties": { "id": "08f283446a59280e038163d69b93f9ca", "name": "Days Inn by Wyndham San Jose", "addresses": [ { "freeform": "4170 Monterey Rd", "locality": "San Jose", "postcode": "95111-3627", "region": "CA", "country": "US" } ], "confidence": 0.99497955735766175 }, "geometry": { "type": "Point", "coordinates": [ -121.8339767, 37.2773447 ] } },
{ "type": "Feature", "properties": { "id": "08f2834441963920037f21357a2ab47a", "name": "China Station Restaurant", "addresses": [ { "freeform": "80 Senter Rd", "locality": "San Jose", "postcode": "95111-3616", "region": "CA", "country": "US" } ], "confidence": 0.97817198851157294 }, "geometry": { "type": "Point", "coordinates": [ -121.8331597, 37.2777998 ] } },
{ "type": "Feature", "properties": { "id": "08f283446a59e2ca03f0a650ad693e87", "name": "Metro by T-Mobile", "addresses": [ { "freeform": "4120 Monterey Hwy", "locality": "San Jose", "postcode": "95111", "region": "CA", "country": "US" } ], "confidence": 0.77 }, "geometry": { "type": "Point", "coordinates": [ -121.8351147, 37.2781507 ] } },
{ "type": "Feature", "properties": { "id": "08f283446a59a96c03de99ac5288e213", "name": "Mountain Mike's Pizza", "addresses": [ { "freeform": "4116 Monterey Hwy", "locality": "San Jose", "postcode": "95111", "region": "CA", "country": "US" } ], "confidence": 0.77 }, "geometry": { "type": "Point", "coordinates": [ -121.8351405, 37.2781763 ] } },
{ "type": "Feature", "properties": { "id": "08f283446a59ab1a038917e94f27fc64", "name": "UPS Access Point location", "addresses": [ { "freeform": "4112 Monterey Highway", "locality": "SAN JOSE", "postcode": "95111", "region": "CA", "country": "US" } ], "confidence": 0.77 }, "geometry": { "type": "Point", "coordinates": [ -121.835172, 37.278312 ] } },
{ "type": "Feature", "properties": { "id": "08f283446a59ac4603ccdc2a579f439f", "name": "Tacos el dorados", "addresses": [ { "freeform": "4144 Monterey Rd", "locality": "San Jose", "postcode": "95111-3626", "region": "CA", "country": "US" } ], "confidence": 0.47268106734434556 }, "geometry": { "type": "Point", "coordinates": [ -121.8348919, 37.2783016 ] } },
{ "type": "Feature", "properties": { "id": "08f2834441969a83031d5441559fb6cc", "name": "Lee's Sandwiches", "addresses": [ { "freeform": "4060 Monterey Hwy", "locality": "San Jose", "postcode": "95111-3633", "region": "CA", "country": "US" } ], "confidence": 0.97817198851157294 }, "geometry": { "type": "Point", "coordinates": [ -121.8345194, 37.2786302 ] } },
{ "type": "Feature", "properties": { "id": "08f283444196915603931882235de07b", "name": "Lee'ssandwiches - 4060monterey", "addresses": [ { "freeform": "4060 Monterey Rd", "locality": "San Jose", "postcode": "95111-3633", "region": "CA", "country": "US" } ], "confidence": 0.31588785046728973 }, "geometry": { "type": "Point", "coordinates": [ -121.8345194, 37.2786302 ] } },
{ "type": "Feature", "properties": { "id": "08f283446a4b458903dd77f5288e2861", "name": "Leisure Foot Spa", "addresses": [ { "freeform": "4072 Monterey Rd", "locality": "San Jose", "postcode": "95111", "region": "CA", "country": "US" } ], "confidence": 0.97817198851157294 }, "geometry": { "type": "Point", "coordinates": [ -121.8349851, 37.2787257 ] } },
{ "type": "Feature", "properties": { "id": "08f283446a4b40860334ec244fc49738", "name": "Trine's Cafe", "addresses": [ { "freeform": "4080 Monterey Hwy", "locality": "San Jose", "postcode": "95111-3633", "region": "CA", "country": "US" } ], "confidence": 0.71069587628865982 }, "geometry": { "type": "Point", "coordinates": [ -121.835074, 37.27882 ] } },
{ "type": "Feature", "properties": { "id": "08f283446a4b454d031a96af7c35626d", "name": "Cute Nails and Spa", "addresses": [ { "freeform": "4076 Monterey Hwy", "locality": "San Jose", "postcode": "95111-3633", "region": "CA", "country": "US" } ], "confidence": 0.97817198851157294 }, "geometry": { "type": "Point", "coordinates": [ -121.8349467, 37.2789565 ] } },
{ "type": "Feature", "properties": { "id": "08f283446a4b005803aeebab20a73c87", "name": "Genuine Automotive", "addresses": [ { "freeform": "4098 Monterey Hwy", "locality": "San Jose", "postcode": "95111-3600", "region": "CA", "country": "US" } ], "confidence": 0.99497955735766175 }, "geometry": { "type": "Point", "coordinates": [ -121.8351319, 37.2793429 ] } },
{ "type": "Feature", "properties": { "id": "08f283446a4b454d03e8e3355c8295c3", "name": "Super Estilo's Hair Salon", "addresses": [ { "freeform": "4076 Monterey Hwy", "locality": "San Jose", "postcode": "95111-3633", "region": "CA", "country": "US" } ], "confidence": 0.97817198851157294 }, "geometry": { "type": "Point", "coordinates": [ -121.8349167, 37.2789455 ] } },
{ "type": "Feature", "properties": { "id": "08f28344419692dc03a8ad4ba7758ab3", "name": "TK Noodle", "addresses": [ { "freeform": "4068 Monterey Rd", "locality": "San Jose", "postcode": "95111", "region": "CA", "country": "US" } ], "confidence": 0.97817198851157294 }, "geometry": { "type": "Point", "coordinates": [ -121.8346494, 37.2789142 ] } },
{ "type": "Feature", "properties": { "id": "08f283446a4b44aa031fd9ced750d20c", "name": "Sivar Insurance Services", "addresses": [ { "freeform": "4070 Monterey Hwy", "locality": "San Jose", "postcode": "95111-3633", "region": "CA", "country": "US" } ], "confidence": 0.93837369560937189 }, "geometry": { "type": "Point", "coordinates": [ -121.8347442, 37.2789438 ] } },
{ "type": "Feature", "properties": { "id": "08f283446a4b45910356394b04714d15", "name": "Au's Acupuncture and Herb Clinic", "addresses": [ { "freeform": "4070 Monterey Rd", "locality": "San Jose", "postcode": "95111", "region": "CA", "country": "US" } ], "confidence": 0.92595108695652173 }, "geometry": { "type": "Point", "coordinates": [ -121.8347424, 37.2789442 ] } },
{ "type": "Feature", "properties": { "id": "08f283446a4b6219033a06124ba42e2e", "name": "Rainbow Tea House", "addresses": [ { "freeform": "4100 Monterey Rd", "locality": "San Jose", "postcode": "95111-3637", "region": "CA", "country": "US" } ], "confidence": 0.91798695246971107 }, "geometry": { "type": "Point", "coordinates": [ -121.8346693, 37.2792119 ] } },
{ "type": "Feature", "properties": { "id": "08f283444194d373039e407a5ffd8146", "name": "Deseo Night Club", "addresses": [ { "freeform": "4104 Monterey Hwy", "locality": "San Jose", "postcode": "95111-3626", "region": "CA", "country": "US" } ], "confidence": 0.98331870061457416 }, "geometry": { "type": "Point", "coordinates": [ -121.8343834, 37.2792393 ] } },
{ "type": "Feature", "properties": { "id": "08f283446a59ab2c03a672eda480ab20", "name": "Dollar & Up Cell Accessories", "addresses": [ { "freeform": "4106 Monterey Hwy", "locality": "San Jose", "postcode": "95111-3626", "region": "CA", "country": "US" } ], "confidence": 0.97817198851157294 }, "geometry": { "type": "Point", "coordinates": [ -121.8343166, 37.2792257 ] } },
{ "type": "Feature", "properties": { "id": "08f283444196cac303677ebe090b25f9", "name": "Senter and Monterey", "addresses": [ { "freeform": null, "locality": null, "postcode": "95111", "region": null, "country": "US" } ], "confidence": 0.89363057324840767 }, "geometry": { "type": "Point", "coordinates": [ -121.8338151, 37.2780451 ] } },
{ "type": "Feature", "properties": { "id": "08f283444196880b03e23c3a476f42ff", "name": "La Costa", "addresses": [ { "freeform": "4152 Monterey Hwy", "locality": "San Jose", "postcode": "95111-3626", "region": "CA", "country": "US" } ], "confidence": 0.97817198851157294 }, "geometry": { "type": "Point", "coordinates": [ -121.8340639, 37.278421 ] } },
{ "type": "Feature", "properties": { "id": "08f283444194d8a003eeb7c2de050070", "name": "Guitar Wars", "addresses": [ { "freeform": "4110 Monterey Hwy", "locality": "San Jose", "postcode": "95111-3626", "region": "CA", "country": "US" } ], "confidence": 0.97817198851157294 }, "geometry": { "type": "Point", "coordinates": [ -121.8341015, 37.2792632 ] } },
{ "type": "Feature", "properties": { "id": "08f283444194da000328aa7bb2fd8e20", "name": "El Potrillo Night Club", "addresses": [ { "freeform": "4104 Monterey Hwy", "locality": "San Jose", "postcode": "95111-3626", "region": "CA", "country": "US" } ], "confidence": 0.87645687645687642 }, "geometry": { "type": "Point", "coordinates": [ -121.8342438, 37.2793355 ] } },
{ "type": "Feature", "properties": { "id": "08f283444194191d0301047d831b09ab", "name": "Buchanans Night Club", "addresses": [ { "freeform": "4104 Monterey Hwy", "locality": "San Jose", "postcode": "95111-3626", "region": "CA", "country": "US" } ], "confidence": 0.97817198851157294 }, "geometry": { "type": "Point", "coordinates": [ -121.8342438, 37.2793355 ] } },
{ "type": "Feature", "properties": { "id": "08f283444194d38603ddb3bc74df6820", "name": "Prestige Insurance Sevices", "addresses": [ { "freeform": "4112 Monterey Rd", "locality": "San Jose", "postcode": "95111-3626", "region": "CA", "country": "US" } ], "confidence": 0.92595108695652173 }, "geometry": { "type": "Point", "coordinates": [ -121.8341059, 37.279321 ] } },
{ "type": "Feature", "properties": { "id": "08f283444194d8a00356092a8202cc4e", "name": "Lashes By Anna", "addresses": [ { "freeform": null, "locality": "San Jose", "postcode": null, "region": "CA", "country": "US" } ], "confidence": 0.57790927021696248 }, "geometry": { "type": "Point", "coordinates": [ -121.83403, 37.27923 ] } },
{ "type": "Feature", "properties": { "id": "08f283444194d3860397075abd315acb", "name": "La Herradura Ranch Style Wear", "addresses": [ { "freeform": "4112 Monterey Rd", "locality": "San Jose", "postcode": "95111-3626", "region": "CA", "country": "US" } ], "confidence": 0.97817198851157294 }, "geometry": { "type": "Point", "coordinates": [ -121.83403, 37.27923 ] } },
{ "type": "Feature", "properties": { "id": "08f283444194d38603e04b70ccf8dba7", "name": "Boost Mobile", "addresses": [ { "freeform": "4112 Monterey Hwy", "locality": "San Jose", "postcode": "95111-3635", "region": "CA", "country": "US" } ], "confidence": 0.99497955735766175 }, "geometry": { "type": "Point", "coordinates": [ -121.8340542, 37.2793257 ] } },
{ "type": "Feature", "properties": { "id": "08f283444194d50003868009b436d81c", "name": "Teriyaki Dude", "addresses": [ { "freeform": "4112 Monterey Rd", "locality": "San Jose", "postcode": "95111-3626", "region": "CA", "country": "US" } ], "confidence": 0.92595108695652173 }, "geometry": { "type": "Point", "coordinates": [ -121.83388, 37.2792247 ] } },
{ "type": "Feature", "properties": { "id": "08f283444194dcde032e7e4d560f8e4e", "name": "Quay 168", "addresses": [ { "freeform": "4112 Monterey Rd", "locality": "San Jose", "postcode": "95111-3626", "region": "CA", "country": "US" } ], "confidence": 0.91798695246971107 }, "geometry": { "type": "Point", "coordinates": [ -121.8338674, 37.2793534 ] } },
{ "type": "Feature", "properties": { "id": "08f283444194c2210345ef9e0d99296b", "name": "Lolita's Furniture", "addresses": [ { "freeform": "4112 Monterey Rd", "locality": "San Jose", "postcode": "95111", "region": "CA", "country": "US" } ], "confidence": 0.97817198851157294 }, "geometry": { "type": "Point", "coordinates": [ -121.8336904, 37.2792454 ] } },
{ "type": "Feature", "properties": { "id": "08f283444194c274037d915265f62d65", "name": "Marina Dental Center", "addresses": [ { "freeform": "4112 Monterey Rd", "locality": "San Jose", "postcode": "95111-3626", "region": "CA", "country": "US" } ], "confidence": 0.93837369560937189 }, "geometry": { "type": "Point", "coordinates": [ -121.8337426, 37.2792836 ] } },
{ "type": "Feature", "properties": { "id": "08f2834441941d05034b3807f0df5cdf", "name": "Bank of America Financial Center", "addresses": [ { "freeform": "4150 Monterey Hwy", "locality": "San Jose", "postcode": "95111", "region": "CA", "country": "US" } ], "confidence": 0.77 }, "geometry": { "type": "Point", "coordinates": [ -121.8331412, 37.278831 ] } },
{ "type": "Feature", "properties": { "id": "08f283444194568a03d33c7764e44ff6", "name": "Marina Grocery", "addresses": [ { "freeform": "4148 Monterey Rd", "locality": "San Jose", "postcode": "95111-3626", "region": "CA", "country": "US" } ], "confidence": 0.97817198851157294 }, "geometry": { "type": "Point", "coordinates": [ -121.8329765, 37.2787614 ] } },
{ "type": "Feature", "properties": { "id": "08f283444194c21003fa168929dc3b5d", "name": "All Discount", "addresses": [ { "freeform": "4114 Monterey Hwy", "locality": "San Jose", "postcode": "95111-3626", "region": "CA", "country": "US" } ], "confidence": 0.92595108695652173 }, "geometry": { "type": "Point", "coordinates": [ -121.8335447, 37.2792415 ] } },
{ "type": "Feature", "properties": { "id": "08f28344419489a80354c3fdb0c274e5", "name": "Mountain Mike's Pizza", "addresses": [ { "freeform": "4116 Monterey Rd", "locality": "San Jose", "postcode": "95111-3626", "region": "CA", "country": "US" } ], "confidence": 0.99497955735766175 }, "geometry": { "type": "Point", "coordinates": [ -121.8335684, 37.2793245 ] } },
{ "type": "Feature", "properties": { "id": "08f283444194ebaa03facb052ead78d2", "name": "Montana Insurance Services", "addresses": [ { "freeform": "4122 Monterey Rd", "locality": "San Jose", "postcode": "95111-3626", "region": "CA", "country": "US" } ], "confidence": 0.93837369560937189 }, "geometry": { "type": "Point", "coordinates": [ -121.8331951, 37.2792165 ] } },
{ "type": "Feature", "properties": { "id": "08f283444194c48e036f9df9967b0c84", "name": "Fiesta Auto Insurance & Tax Service", "addresses": [ { "freeform": "4138 Monterey Hwy", "locality": "San Jose", "postcode": "95111-3626", "region": "CA", "country": "US" } ], "confidence": 0.99497955735766175 }, "geometry": { "type": "Point", "coordinates": [ -121.8331081, 37.2792114 ] } },
{ "type": "Feature", "properties": { "id": "08f283444194e11a03e9b6213c166b9b", "name": "Crown Promotions and Printing", "addresses": [ { "freeform": "4124 Monterey Hwy", "locality": "San Jose", "postcode": "95111-3626", "region": "CA", "country": "US" } ], "confidence": 0.87645687645687642 }, "geometry": { "type": "Point", "coordinates": [ -121.8330769, 37.2792692 ] } },
{ "type": "Feature", "properties": { "id": "08f283444194e81403d20d3806386d01", "name": "Lucas Bar and Restaurant", "addresses": [ { "freeform": "4126 Monterey Hwy", "locality": "San Jose", "postcode": "95111-3626", "region": "CA", "country": "US" } ], "confidence": 0.92595108695652173 }, "geometry": { "type": "Point", "coordinates": [ -121.8330602, 37.2792891 ] } },
{ "type": "Feature", "properties": { "id": "08f283444194ec9a03bc9a3118c2b848", "name": "Hair and Nail Club", "addresses": [ { "freeform": "4128 Monterey Hwy", "locality": "San Jose", "postcode": "95111-3626", "region": "CA", "country": "US" } ], "confidence": 0.92595108695652173 }, "geometry": { "type": "Point", "coordinates": [ -121.8329785, 37.2792703 ] } },
{ "type": "Feature", "properties": { "id": "08f28344419416d003def5912679a1c1", "name": "Nutricion Nutricional", "addresses": [ { "freeform": "4132 Monterey Hwy", "locality": "San Jose", "postcode": "95111-3626", "region": "CA", "country": "US" } ], "confidence": 0.85338725985844288 }, "geometry": { "type": "Point", "coordinates": [ -121.8329136, 37.2792388 ] } },
{ "type": "Feature", "properties": { "id": "08f283444194ec4503476a31d2ce34ce", "name": "Los Compadres Bar And Grill", "addresses": [ { "freeform": "4126 Monterey Hwy", "locality": "San Jose", "postcode": "95111-3626", "region": "CA", "country": "US" } ], "confidence": 0.97817198851157294 }, "geometry": { "type": "Point", "coordinates": [ -121.8330497, 37.2793125 ] } },
{ "type": "Feature", "properties": { "id": "08f283446a4d6d23032e6708d19892b4", "name": "New Restoration Church", "addresses": [ { "freeform": "32 Rancho Dr", "locality": "San Jose", "postcode": "95111-4476", "region": "CA", "country": "US" } ], "confidence": 0.97817198851157294 }, "geometry": { "type": "Point", "coordinates": [ -121.8375732, 37.2812316 ] } },
{ "type": "Feature", "properties": { "id": "08f283446a4b2b33036c86cae12812c4", "name": "Kumon Math & Reading Center of San Jose - Capitol Monterey", "addresses": [ { "freeform": "4100 Monterey Hwy Ste 102/104", "locality": "San Jose", "postcode": "95111", "region": "CA", "country": "US" } ], "confidence": 0.77 }, "geometry": { "type": "Point", "coordinates": [ -121.83472442627, 37.279457092285199 ] } },
{ "type": "Feature", "properties": { "id": "08f283446a4b60ed03a4627070a010d7", "name": "Liberty Tax Service", "addresses": [ { "freeform": "4100 Monterey Hwy Ste 116", "locality": "San Jose", "postcode": "95111", "region": "CA", "country": "US" } ], "confidence": 0.87871664548919948 }, "geometry": { "type": "Point", "coordinates": [ -121.8346876, 37.2798435 ] } },
{ "type": "Feature", "properties": { "id": "08f283444194d386032272210c30eb76", "name": "UPS Access Point location", "addresses": [ { "freeform": "4112 Monterey Hwy", "locality": "San Jose", "postcode": "95111", "region": "CA", "country": "US" } ], "confidence": 0.77 }, "geometry": { "type": "Point", "coordinates": [ -121.834099, 37.279474 ] } },
{ "type": "Feature", "properties": { "id": "08f283444196b649033a36f5c665c25b", "name": "Crossfit", "addresses": [ { "freeform": "4112 Monterey Hwy", "locality": "San Jose", "postcode": "95111-3635", "region": "CA", "country": "US" } ], "confidence": 0.47268106734434556 }, "geometry": { "type": "Point", "coordinates": [ -121.83403, 37.279386 ] } },
{ "type": "Feature", "properties": { "id": "08f283444194d9460300b093cd74b281", "name": "V-Mart", "addresses": [ { "freeform": "4108 Monterey Hwy", "locality": "San Jose", "postcode": "95111", "region": "CA", "country": "US" } ], "confidence": 0.77 }, "geometry": { "type": "Point", "coordinates": [ -121.8342097, 37.2798432 ] } },
{ "type": "Feature", "properties": { "id": "08f283444194eb0903e95b28cd5b0ea0", "name": "Metro by T-Mobile", "addresses": [ { "freeform": "4120 Monterey Hwy", "locality": "San Jose", "postcode": "95111-3626", "region": "CA", "country": "US" } ], "confidence": 0.97817198851157294 }, "geometry": { "type": "Point", "coordinates": [ -121.8332752, 37.2793666 ] } },
{ "type": "Feature", "properties": { "id": "08f2834441865828038dc43a5f2a2069", "name": "Capitol Park", "addresses": [ { "freeform": "3975 7 Trees Blvd", "locality": "San Jose", "postcode": "95111-3405", "region": "CA", "country": "US" } ], "confidence": 0.29137199434229144 }, "geometry": { "type": "Point", "coordinates": [ -121.833728, 37.280426 ] } },
{ "type": "Feature", "properties": { "id": "08f283444196374a036a278687c052c5", "name": "Tamales Lupita", "addresses": [ { "freeform": "80 Senter Rd", "locality": "San Jose", "postcode": "95111-3616", "region": "CA", "country": "US" } ], "confidence": 0.92595108695652173 }, "geometry": { "type": "Point", "coordinates": [ -121.8328793, 37.2783976 ] } },
{ "type": "Feature", "properties": { "id": "08f283444194426803ed887411bfe119", "name": "Bank of America Financial Center", "addresses": [ { "freeform": "4150 Monterey Hwy", "locality": "San Jose", "postcode": "95111-3626", "region": "CA", "country": "US" } ], "confidence": 0.97817198851157294 }, "geometry": { "type": "Point", "coordinates": [ -121.8327281, 37.2784832 ] } },
{ "type": "Feature", "properties": { "id": "08f283444194ecb403b34280a4ddbd95", "name": "Palomita de la Sierra Cosmetic", "addresses": [ { "freeform": "4134 Monterey Hwy", "locality": "San Jose", "postcode": "95111-3626", "region": "CA", "country": "US" } ], "confidence": 0.83841059602649004 }, "geometry": { "type": "Point", "coordinates": [ -121.8327921, 37.2793489 ] } },
{ "type": "Feature", "properties": { "id": "08f283444194324003b725feae7c7195", "name": "United Paleteria y Neveria San Jose #2", "addresses": [ { "freeform": "4130 Monterey Rd", "locality": "San Jose", "postcode": "95111-3626", "region": "CA", "country": "US" } ], "confidence": 0.71069587628865982 }, "geometry": { "type": "Point", "coordinates": [ -121.832741, 37.279413 ] } },
{ "type": "Feature", "properties": { "id": "08f283446a4967860375c8599d224c3d", "name": "Orchard Glen Apartments", "addresses": [ { "freeform": "3975 Seven Trees Blvd", "locality": "San Jose", "postcode": "95111-3405", "region": "CA", "country": "US" } ], "confidence": 0.93837369560937189 }, "geometry": { "type": "Point", "coordinates": [ -121.8325165, 37.2805254 ] } },
{ "type": "Feature", "properties": { "id": "08f283444180d15803077819981e18c2", "name": "Delta Hauling Service", "addresses": [ { "freeform": "201 Rio Chico Dr", "locality": "San Jose", "postcode": "95111", "region": "CA", "country": "US" } ], "confidence": 0.77 }, "geometry": { "type": "Point", "coordinates": [ -121.8306718, 37.2810005 ] } }
]
}
